{
  "city": "Izmit",
  "taxi": {
    "openingFee": 10,
    "costPerKm": 4
  },
  "duraklar": [
    {
      "id": "bus_otogar",
      "name": "Otogar (Bus)",
      "type": "bus",
      "lat": 40.78259,
      "lon": 29.94628,
      "sonDurak": false,
      "nextStops": [
        {
          "stopId": "bus_sekapark",
          "mesafe": 3.5,
          "sure": 10,
          "ucret": 3
        }
      ],
      "transfer": {
        "transferStopId": "tram_otogar",
        "transferSure": 2,
        "transferUcret": 0.5
      }
    },
    {
      "id": "bus_sekapark",
      "name": "Sekapark (Bus)",
      "type": "bus",
      "lat": 40.7652,
      "lon": 29.9619,
      "sonDurak": false,
      "nextStops": [
        {
          "stopId": "bus_yahyakaptan",
          "mesafe": 2,
          "sure": 8,
          "ucret": 2.5
        },
        {
          "stopId": "bus_symbolavm",
          "mesafe": 4,
          "sure": 12,
          "ucret": 3.5
        },
        {
          "stopId": "bus_41burda",
          "mesafe": 4.5,
          "sure": 14,
          "ucret": 3.5
        }
      ],
      "transfer": {
        "transferStopId": "tram_sekapark",
        "transferSure": 3,
        "transferUcret": 0
      }
    },
    {
      "id": "bus_yahyakaptan",
      "name": "Yahya Kaptan (Bus)",
      "type": "bus",
      "lat": 40.770965,
      "lon": 29.959499,
      "sonDurak": false,
      "nextStops": [
        {
          "stopId": "bus_umuttepe",
          "mesafe": 5,
          "sure": 12,
          "ucret": 4
        }
      ],
      "transfer": {
        "transferStopId": "tram_yahyakaptan",
        "transferSure": 2,
        "transferUcret": 0
      }
    },
    {
      "id": "bus_umuttepe",
      "name": "Umuttepe (Bus)",
      "type": "bus",
      "lat": 40.82103,
      "lon": 29.91843,
      "sonDurak": true,
      "nextStops": [],
      "transfer": null
    },
    {
      "id": "bus_symbolavm",
      "name": "Symbol AVM (Bus)",
      "type": "bus",
      "lat": 40.77788,
      "lon": 29.94991,
      "sonDurak": true,
      "nextStops": [],
      "transfer": null
    },
    {
      "id": "bus_41burda",
      "name": "41 Burda AVM (Bus)",
      "type": "bus",
      "lat": 40.77731,
      "lon": 29.92512,
      "sonDurak": true,
      "nextStops": [],
      "transfer": null
    },
    {
      "id": "tram_otogar",
      "name": "Otogar (Tram)",
      "type": "tram",
      "lat": 40.78245,
      "lon": 29.9461,
      "sonDurak": false,
      "nextStops": [
        {
          "stopId": "tram_yahyakaptan",
          "mesafe": 1.2,
          "sure": 5,
          "ucret": 2.5
        }
      ],
      "transfer": {
        "transferStopId": "bus_otogar",
        "transferSure": 2,
        "transferUcret": 0.5
      }
    },
    {
      "id": "tram_yahyakaptan",
      "name": "Yahya Kaptan (Tram)",
      "type": "tram",
      "lat": 40.7716,
      "lon": 29.9601,
      "sonDurak": false,
      "nextStops": [
        {
          "stopId": "tram_sekapark",
          "mesafe": 2,
          "sure": 6,
          "ucret": 2
        }
      ],
      "transfer": {
        "transferStopId": "bus_yahyakaptan",
        "transferSure": 2,
        "transferUcret": 0
      }
    },
    {
      "id": "tram_sekapark",
      "name": "Sekapark (Tram)",
      "type": "tram",
      "lat": 40.762,
      "lon": 29.9655,
      "sonDurak": false,
      "nextStops": [
        {
          "stopId": "tram_halkevi",
          "mesafe": 3,
          "sure": 7,
          "ucret": 1.5
        }
      ],
      "transfer": {
        "transferStopId": "bus_sekapark",
        "transferSure": 3,
        "transferUcret": 0
      }
    },
    {
      "id": "tram_halkevi",
      "name": "Halkevi (Tram)",
      "type": "tram",
      "lat": 40.7635,
      "lon": 29.9387,
      "sonDurak": true,
      "nextStops": [],
      "transfer": {
        "transferStopId": "bus_sekapark",
        "transferSure": 5,
        "transferUcret": 0.5
      }
    }
  ]
 }
